,City,Lat,Lng,Max Temp,Humidity,Cloudiness,Wind Speed,Country,Date
0,bredasdorp,-34.53,20.04,55.4,82,30,2.24,ZA,1580184353
1,cape town,-33.93,18.42,61.0,93,28,5.82,ZA,1580184088
2,bardiyah,31.76,25.09,57.34,62,0,12.91,LY,1580184448
3,punta arenas,-53.15,-70.92,46.4,81,41,9.17,CL,1580184336
4,qaanaaq,77.48,-69.36,-11.9,67,48,3.2,GL,1580184353
5,nikolskoye,59.7,30.79,24.8,92,90,6.71,RU,1580184360
6,santa cruz cabralia,-16.28,-39.02,77.0,94,75,3.36,BR,1580184448
7,port alfred,-33.59,26.89,60.01,67,13,4.0,ZA,1580184350
8,ushibuka,32.19,130.02,56.84,68,0,16.75,JP,1580184449
9,umba,66.69,34.34,10.78,94,97,5.17,RU,1580184449
10,rio gallegos,-51.62,-69.22,46.4,81,92,12.75,AR,1580184273
11,rikitea,-23.12,-134.97,80.13,75,71,7.4,PF,1580184351
12,nampula,-15.12,39.27,73.4,94,90,5.82,MZ,1580184449
13,camacha,33.08,-16.33,60.8,82,20,9.48,PT,1580184356
14,ushuaia,-54.8,-68.3,46.4,93,75,6.93,AR,1580184061
15,banda aceh,5.56,95.32,81.03,76,98,5.37,ID,1580184449
16,lebu,-37.62,-73.65,59.47,86,88,6.62,CL,1580184349
17,dalby,-27.18,151.27,93.99,55,75,10.29,AU,1580184449
18,pevek,69.7,170.31,-0.11,87,100,2.39,RU,1580184357
19,souillac,-20.52,57.52,79.0,88,40,3.36,MU,1580184357
20,atuona,-9.8,-139.03,81.72,75,80,11.54,PF,1580184351
21,arraial do cabo,-22.97,-42.03,76.71,89,24,18.34,BR,1580184363
22,geraldton,-28.77,114.6,84.2,62,0,14.99,AU,1580184349
23,cabedelo,-6.98,-34.83,80.6,83,95,4.7,BR,1580184449
24,saint-philippe,-21.36,55.77,75.2,57,26,6.93,RE,1580184356
25,saskylakh,71.92,114.08,-23.1,95,7,4.27,RU,1580184357
26,statesboro,32.45,-81.78,50.0,93,1,6.93,US,1580184450
27,neiafu,-18.65,-173.98,84.2,74,40,4.7,TO,1580184450
28,sibu,2.3,111.82,86.0,74,75,9.17,MY,1580184412
29,carnarvon,-24.87,113.63,82.4,78,0,14.99,AU,1580184366
30,brainerd,46.36,-94.2,19.4,85,90,6.93,US,1580184450
31,upernavik,72.79,-56.15,-15.12,94,100,4.79,GL,1580184357
32,castro,-24.79,-50.01,64.0,96,47,3.49,BR,1580184355
33,krasnoselkup,65.7,82.47,21.18,94,100,17.02,RU,1580184450
34,moree,-29.47,149.85,91.4,36,8,4.7,AU,1580184450
35,hamilton,39.18,-84.53,34.0,82,90,3.91,US,1580184351
36,oranjemund,-28.55,16.43,60.15,86,48,9.06,NA,1580184375
37,busselton,-33.65,115.33,96.01,16,0,10.83,AU,1580184243
38,tateyama,34.98,139.87,44.6,93,75,13.87,JP,1580184450
39,lakselv,70.05,24.97,3.2,83,24,33.33,NO,1580184450
40,hare bay,48.85,-54.01,28.4,100,90,13.87,CA,1580184450
41,penzance,50.12,-5.54,43.0,60,99,29.97,GB,1580184450
42,mataura,-46.19,168.86,66.0,58,67,8.99,NZ,1580184352
43,salinas,36.68,-121.66,55.0,87,75,6.93,US,1580184419
44,fortuna,40.6,-124.16,54.0,81,90,6.93,US,1580184358
45,avarua,-21.21,-159.78,78.8,94,100,12.75,CK,1580184354
46,walvis bay,-22.96,14.51,62.01,100,0,6.93,NA,1580184450
47,san patricio,19.22,-104.7,75.97,76,0,15.52,MX,1580184360
48,bengkulu,-3.8,102.27,88.32,56,78,0.6,ID,1580184355
49,sur,22.57,59.53,62.64,59,0,9.91,OM,1580184373
50,grindavik,63.84,-22.43,33.8,79,90,14.99,IS,1580184354
51,masterton,-40.96,175.66,71.01,83,63,6.4,NZ,1580184361
52,grand haven,43.06,-86.23,34.0,93,90,5.82,US,1580184367
53,thompson,55.74,-97.86,12.2,85,90,2.24,CA,1580184355
54,jamestown,42.1,-79.24,34.0,86,90,11.41,US,1580184095
55,hobyo,5.35,48.53,76.6,75,100,19.69,SO,1580184451
56,norman wells,65.28,-126.83,-18.4,68,75,8.05,CA,1580184352
57,maumere,-8.62,122.21,83.66,74,83,6.2,ID,1580184451
58,dikson,73.51,80.55,-11.22,96,90,4.76,RU,1580184352
59,hithadhoo,-0.6,73.08,81.55,79,100,15.03,MV,1580184102
60,vaini,-21.2,-175.2,80.6,88,75,4.7,TO,1580184348
61,hilo,19.73,-155.09,78.8,65,90,11.41,US,1580184352
62,singkang,2.1,102.8,86.0,70,20,6.93,MY,1580184451
63,innisfail,-17.53,146.03,80.01,78,100,4.0,AU,1580184451
64,hasaki,35.73,140.83,51.8,93,75,10.29,JP,1580184349
65,ponta do sol,32.67,-17.1,60.8,72,20,5.82,PT,1580184355
66,safranbolu,41.25,32.69,35.56,78,98,4.68,TR,1580184451
67,rivadavia,-33.19,-68.46,78.8,44,47,9.17,AR,1580184451
68,taoudenni,22.68,-3.98,66.97,22,0,10.09,ML,1580184451
69,butaritari,3.07,172.79,84.47,78,95,23.11,KI,1580184350
70,puerto ayora,-0.74,-90.35,73.99,14,81,1.01,EC,1580184336
71,kapchorwa,1.4,34.45,65.46,88,100,2.71,UG,1580184451
72,yellowknife,62.46,-114.35,14.0,85,90,6.93,CA,1580184349
73,tucupita,9.06,-62.05,72.93,97,0,3.47,VE,1580184452
74,kodiak,57.79,-152.41,10.4,66,1,8.05,US,1580184350
75,luderitz,-26.65,15.16,60.8,63,0,10.29,NA,1580184362
76,flinders,-34.58,150.86,93.0,65,75,14.99,AU,1580184364
77,concepcion del oro,24.63,-101.42,54.63,46,0,2.62,MX,1580184452
78,coihaique,-45.58,-72.07,57.2,71,90,12.75,CL,1580184452
79,lompoc,34.64,-120.46,57.99,50,1,8.05,US,1580184357
80,mukhen,48.1,136.1,19.71,69,0,2.33,RU,1580184452
81,navahrudak,53.6,25.83,32.5,92,100,6.62,BY,1580184452
82,warrington,53.39,-2.58,39.2,86,40,16.11,GB,1580184393
83,kapaa,22.08,-159.32,78.8,69,40,8.05,US,1580184228
84,kavieng,-2.57,150.8,85.06,73,6,10.16,PG,1580184365
85,tuktoyaktuk,69.45,-133.04,-20.2,75,40,17.22,CA,1580184353
86,barrow,71.29,-156.79,-22.0,74,90,5.82,US,1580184354
87,east london,-33.02,27.91,59.0,87,100,5.82,ZA,1580184351
88,cameta,-2.24,-49.5,75.22,96,100,1.23,BR,1580184452
89,tasiilaq,65.61,-37.64,28.4,63,100,5.82,GL,1580184351
90,vila franca do campo,37.72,-25.43,64.4,93,75,23.04,PT,1580184452
91,lincoln,40.8,-96.67,33.01,96,90,6.93,US,1580184452
92,cidreira,-30.18,-50.21,74.3,77,77,12.68,BR,1580184366
93,ilulissat,69.22,-51.1,6.8,60,100,6.93,GL,1580184377
94,katete,-0.78,29.75,62.56,66,99,1.25,UG,1580184453
95,hermanus,-34.42,19.23,60.01,97,10,7.16,ZA,1580184354
96,albany,42.6,-73.97,37.4,100,90,6.93,US,1580184348
97,guerrero negro,27.98,-114.06,61.32,76,0,5.23,MX,1580184360
98,amuntai,-2.42,115.25,88.45,67,10,2.8,ID,1580184453
99,evensk,61.95,159.23,17.78,90,100,6.69,RU,1580184453
100,verkh-usugli,52.7,115.17,9.82,72,0,1.72,RU,1580184373
101,airai,-8.93,125.41,83.08,61,100,5.12,TL,1580184353
102,preobrazheniye,42.9,133.91,31.78,43,100,6.2,RU,1580184453
103,impfondo,1.64,18.07,68.63,33,0,1.25,CG,1580184367
104,saint-augustin,51.23,-58.65,18.46,90,100,23.17,CA,1580184378
105,georgetown,5.41,100.34,89.6,62,20,8.05,MY,1580184349
106,katherine,-14.47,132.27,95.0,53,40,16.11,AU,1580184453
107,atambua,-9.11,124.89,84.06,70,94,5.53,ID,1580184453
108,belaya gora,68.53,146.42,-29.47,98,85,4.7,RU,1580184365
109,batticaloa,7.71,81.69,75.49,76,47,2.01,LK,1580184453
110,carutapera,-1.2,-46.02,82.26,80,100,17.16,BR,1580184453
111,bluff,-46.6,168.33,66.0,58,97,8.99,NZ,1580184354
112,gawler,-34.6,138.73,89.01,50,13,13.87,AU,1580184453
113,singaraja,-8.11,115.09,84.96,70,0,4.03,ID,1580184453
114,ribeira grande,38.52,-28.7,61.84,96,100,23.8,PT,1580184353
115,yantzaza,-3.83,-78.76,56.77,97,100,4.09,EC,1580184453
116,port macquarie,-31.43,152.92,93.99,49,0,13.87,AU,1580184199
117,havre-saint-pierre,50.23,-63.6,15.8,72,90,19.46,CA,1580184453
118,manokwari,-0.87,134.08,81.75,75,13,7.96,ID,1580184360
119,klaksvik,62.23,-6.59,35.6,72,63,3.36,FO,1580184358
120,auki,-8.77,160.7,85.48,68,100,8.61,SB,1580184358
121,tual,-5.67,132.75,84.38,75,69,15.79,ID,1580184352
122,tuatapere,-46.13,167.68,66.0,58,100,8.99,NZ,1580184363
123,new norfolk,-42.78,147.06,75.99,36,100,19.46,AU,1580184352
124,karpathos,35.51,27.21,58.05,75,23,9.33,GR,1580184185
125,hobart,-42.88,147.33,75.99,36,32,19.46,AU,1580184358
126,mount gambier,-37.83,140.77,73.4,49,82,12.75,AU,1580184357
127,ribeira brava,32.65,-17.07,60.8,72,20,5.82,PT,1580184454
128,leningradskiy,69.38,178.42,-12.32,96,13,10.45,RU,1580184352
129,manadhoo,5.77,73.38,80.85,66,76,5.53,MV,1580184454
130,bethel,41.37,-73.41,41.0,69,90,11.41,US,1580184359
131,lasa,46.62,10.7,35.01,86,90,5.82,IT,1580184358
132,martapura,-3.42,114.85,91.4,59,20,8.05,ID,1580184454
133,saint anthony,45.02,-93.22,23.0,85,90,6.93,US,1580184189
134,lavrentiya,65.58,-171.0,-12.06,72,0,2.71,RU,1580184454
135,defiance,41.33,-84.45,35.01,100,90,5.82,US,1580184454
136,verkhnyaya inta,65.98,60.31,-15.2,99,100,4.85,RU,1580184454
137,cherskiy,68.75,161.3,-12.95,92,100,7.83,RU,1580184356
138,fort nelson,58.81,-122.7,8.6,84,75,2.24,CA,1580184378
139,gornopravdinsk,60.05,69.9,-2.24,96,99,6.38,RU,1580184454
140,paamiut,61.99,-49.67,11.95,64,0,17.98,GL,1580184359
141,remetea,46.78,25.45,28.99,87,39,2.91,RO,1580184455
142,semenivka,52.18,32.58,30.31,91,84,5.61,UA,1580184455
143,faya,18.39,42.45,51.8,81,20,6.93,SA,1580184366
144,broome,42.25,-75.83,33.01,86,90,6.93,US,1580184366
145,port elizabeth,-33.92,25.57,57.2,71,33,6.93,ZA,1580184358
146,faanui,-16.48,-151.75,83.16,73,66,10.45,PF,1580184352
147,lagoa,39.05,-27.98,63.46,95,100,11.9,PT,1580184363
148,saint george,37.1,-113.58,48.99,64,1,8.05,US,1580184164
149,heze,35.24,115.44,42.04,38,0,4.56,CN,1580184455
150,vaitape,-16.52,-151.75,83.16,73,66,10.45,PF,1580184455
151,madang,-5.22,145.8,83.89,76,100,14.29,PG,1580184455
152,umuarama,-23.77,-53.33,73.45,74,29,3.36,BR,1580184455
153,san ramon de la nueva oran,-23.13,-64.33,68.52,85,86,2.19,AR,1580184455
154,ixtapa,20.7,-105.2,73.4,78,40,3.2,MX,1580184261
155,gwadar,25.12,62.33,63.52,41,0,18.28,PK,1580184455
156,bisho,-32.85,27.44,59.0,87,58,5.82,ZA,1580184455
157,kaitangata,-46.28,169.85,57.25,76,44,8.9,NZ,1580184355
158,katsuura,35.13,140.3,44.6,93,75,13.87,JP,1580184368
159,sao gabriel da cachoeira,-0.13,-67.09,76.35,83,65,3.22,BR,1580184455
160,redlands,34.06,-117.18,69.8,74,1,4.92,US,1580184455
161,miles city,46.41,-105.84,33.8,100,90,4.7,US,1580184359
162,daru,-9.08,143.21,92.35,57,66,5.73,PG,1580184309
163,gushikawa,26.35,127.87,66.2,59,75,17.22,JP,1580184455
164,tortoli,39.93,9.66,55.4,58,40,11.41,IT,1580184456
165,lanxi,29.22,119.48,40.14,89,100,2.19,CN,1580184456
166,simoes,-7.6,-40.82,71.78,94,70,2.39,BR,1580184456
167,mahebourg,-20.41,57.7,79.0,88,40,3.36,MU,1580184357
168,awbari,26.59,12.78,59.14,19,90,7.65,LY,1580184456
169,khanpur,28.65,70.66,54.0,76,7,8.88,PK,1580184456
170,ilam,26.92,87.92,45.19,78,0,1.97,NP,1580184456
171,provideniya,64.38,-173.3,-5.8,76,0,8.95,RU,1580184350
172,tezu,27.92,96.17,59.99,38,0,2.44,IN,1580184348
173,iqaluit,63.75,-68.51,0.0,84,90,5.82,CA,1580184355
174,thinadhoo,0.53,72.93,81.14,76,87,15.68,MV,1580184355
175,divnogorsk,55.96,92.36,17.6,72,100,2.24,RU,1580184456
176,yaan,7.38,8.57,69.4,17,0,0.81,NG,1580184356
177,nanortalik,60.14,-45.24,20.03,71,0,21.32,GL,1580184373
178,aklavik,68.22,-135.01,-22.0,67,90,10.29,CA,1580184122
179,flin flon,54.77,-101.86,9.81,96,7,3.36,CA,1580184456
180,caravelas,-17.71,-39.25,80.28,88,100,14.12,BR,1580184456
181,alofi,-19.06,-169.92,86.0,74,20,6.93,NU,1580184351
182,antanifotsy,-19.65,47.32,58.19,97,17,2.77,MG,1580184456
183,belousovka,50.13,82.52,24.8,68,75,11.18,KZ,1580184456
184,meulaboh,4.14,96.13,81.36,76,82,6.02,ID,1580184379
185,parabel,58.7,81.48,8.11,91,100,10.16,RU,1580184457
186,the pas,53.83,-101.25,12.2,92,90,4.7,CA,1580184457
187,zhangye,38.93,100.45,28.13,36,6,1.97,CN,1580184457
188,krasnogvardeyskiy,57.38,62.32,-0.51,94,82,6.87,RU,1580184457
189,pisco,-13.7,-76.22,71.6,88,75,5.82,PE,1580184361
190,bambous virieux,-20.34,57.76,79.0,88,40,3.36,MU,1580184351
191,ondangwa,-17.92,15.95,75.36,66,86,6.31,NA,1580184457
192,canar,-2.55,-78.93,60.8,82,99,6.93,EC,1580184457
193,orotukan,62.27,151.7,-11.65,94,100,2.44,RU,1580184457
194,torbay,47.67,-52.73,35.01,91,90,16.11,CA,1580184374
195,pictou,45.68,-62.72,34.0,93,72,1.01,CA,1580184457
196,batagay-alyta,67.8,130.41,-21.41,31,4,4.16,RU,1580184340
197,marsabit,2.33,37.99,73.65,76,85,19.48,KE,1580184457
198,tiksi,71.69,128.87,-24.14,89,100,5.14,RU,1580184357
199,turukhansk,65.82,87.98,13.17,91,100,15.5,RU,1580184457
200,pundaguitan,6.37,126.17,82.94,76,6,7.85,PH,1580184457
201,angoche,-16.23,39.91,74.91,96,100,6.04,MZ,1580184457
202,ugoofaaru,5.67,73.0,81.12,70,13,8.46,MV,1580184457
203,phonhong,18.5,102.42,73.4,60,20,4.7,LA,1580184457
204,esperance,-33.87,121.9,105.8,15,0,16.11,AU,1580184371
205,newark,40.74,-74.17,43.0,60,90,15.5,US,1580184441
206,ghanzi,-21.57,21.78,68.95,28,20,6.76,BW,1580184458
207,pangnirtung,66.15,-65.71,-18.51,59,94,3.0,CA,1580184359
208,luganville,-15.53,167.17,87.8,66,40,10.29,VU,1580184365
209,aykhal,66.0,111.5,-7.6,76,0,6.71,RU,1580184370
210,antalaha,-14.9,50.28,78.31,73,0,12.55,MG,1580184458
211,chuy,-33.7,-53.46,60.3,76,0,4.99,UY,1580184352
212,cayenne,4.93,-52.33,80.6,83,90,8.05,GF,1580184354
213,dingle,11.0,122.67,83.05,72,60,7.18,PH,1580184359
214,bara,10.37,10.73,59.38,25,0,5.57,NG,1580184458
215,tombouctou,20.0,-3.0,69.94,27,0,13.98,ML,1580184458
216,carballo,43.21,-8.69,52.0,93,20,4.7,ES,1580184458
217,rzhaksa,52.13,42.03,22.86,95,100,11.45,RU,1580184458
218,asau,46.43,26.4,35.01,86,47,1.12,RO,1580184359
219,ganzhou,28.82,115.43,42.08,69,86,3.91,CN,1580184458
220,asfi,32.3,-9.24,49.86,79,0,8.39,MA,1580184458
221,moss vale,-34.55,150.38,93.0,65,75,14.99,AU,1580184458
222,iwanai,42.97,140.51,32.22,87,92,5.84,JP,1580184371
223,amapa,1.0,-52.0,72.14,99,100,1.97,BR,1580184458
224,plouzane,48.38,-4.62,44.6,75,75,17.22,FR,1580184458
225,muravlenko,63.79,74.52,0.19,96,100,17.2,RU,1580184459
226,farafangana,-22.82,47.83,78.1,71,71,9.08,MG,1580184459
227,vila velha,-20.33,-40.29,75.2,100,90,6.93,BR,1580184368
228,ahipara,-35.17,173.17,77.0,77,0,1.01,NZ,1580184359
229,tomatlan,19.93,-105.25,63.05,93,0,1.95,MX,1580184355
230,melo,-32.37,-54.18,58.93,87,0,8.14,UY,1580184459
231,monroe,43.15,-77.68,33.8,86,90,4.7,US,1580184459
232,chicama,-7.84,-79.15,71.6,88,100,9.17,PE,1580184360
233,wuxue,29.85,115.55,42.55,61,74,8.12,CN,1580184459
234,hit,33.64,42.83,46.98,81,74,1.28,IQ,1580184368
235,topeka,39.05,-95.68,36.0,80,90,3.36,US,1580184253
236,palana,59.12,159.97,21.34,76,0,4.56,RU,1580184459
237,lobamba,-26.47,31.2,51.8,100,100,1.12,SZ,1580184459
238,alta floresta,-9.88,-56.09,73.67,94,100,5.61,BR,1580184372
239,cockburn town,21.46,-71.14,76.39,76,25,10.16,TC,1580184358
240,vanimo,-2.67,141.3,83.26,78,100,13.58,PG,1580184375
241,port blair,11.67,92.75,77.59,56,100,13.42,IN,1580184189
242,kysyl-syr,63.9,122.76,-30.84,95,59,2.06,RU,1580184459
243,peniche,39.36,-9.38,59.0,100,75,6.93,PT,1580184459
244,severnoye,56.35,78.36,6.06,94,100,7.56,RU,1580184459
245,sun city west,33.66,-112.34,66.2,29,0,10.29,US,1580184459
246,severo-kurilsk,50.68,156.12,28.47,88,100,7.25,RU,1580184349
247,nyurba,63.28,118.33,-23.53,93,0,3.13,RU,1580184369
248,amvrosiyivka,47.79,38.48,31.46,91,100,3.56,UA,1580184460
249,shanhetun,44.7,127.2,18.1,82,100,4.43,CN,1580184460
250,ouadda,8.08,22.4,58.37,25,0,4.27,CF,1580184460
251,constitucion,-35.33,-72.42,58.46,87,0,8.75,CL,1580184351
252,gravelbourg,49.88,-106.55,27.55,90,100,5.97,CA,1580184460
253,clyde river,70.47,-68.59,-23.8,67,1,18.34,CA,1580184365
254,carlisle,40.2,-77.19,39.2,60,90,5.82,US,1580184460
255,chimore,-16.98,-65.13,73.8,97,98,2.48,BO,1580184460
256,palu,-0.89,119.87,86.54,57,24,2.75,ID,1580184357
257,bandarbeyla,9.49,50.81,75.4,71,42,27.09,SO,1580184460
258,maningrida,-12.07,134.27,85.78,81,100,19.42,AU,1580184363
259,komsomolskiy,40.43,71.72,35.6,80,40,3.56,UZ,1580184460
260,ranong,9.97,98.63,84.2,62,40,10.29,TH,1580184460
261,itarema,-2.92,-39.92,76.59,90,100,3.44,BR,1580184360
262,xiaoshan,30.17,120.26,45.0,70,75,8.95,CN,1580184460
263,lokosovo,61.13,74.82,5.81,94,100,8.79,RU,1580184460
264,tupik,54.43,119.93,-0.99,89,0,0.98,RU,1580184460
265,longyearbyen,78.22,15.64,5.0,71,89,5.82,SJ,1580184353
266,skjervoy,70.03,20.97,16.52,79,1,30.58,NO,1580184376
267,abomsa,9.98,39.98,63.19,84,98,4.99,ET,1580184461
268,touros,-5.2,-35.46,78.8,88,40,4.7,BR,1580184349
269,shingu,33.73,135.98,64.4,59,75,9.17,JP,1580184376
270,coahuayana,18.73,-103.68,68.0,68,5,6.06,MX,1580184377
271,birao,10.28,22.79,58.08,19,0,9.17,CF,1580184461
272,cabo san lucas,22.89,-109.91,66.2,77,5,4.7,MX,1580184350
273,ornskoldsvik,63.29,18.72,32.0,98,100,5.82,SE,1580184461
274,ahualulco,22.4,-101.17,60.8,21,5,7.96,MX,1580184461
275,iskateley,67.68,53.15,-16.44,100,35,3.42,RU,1580184461
276,storforshei,66.4,14.52,6.44,94,100,7.63,NO,1580184461
277,broken hill,-31.95,141.43,95.0,14,0,12.75,AU,1580184461
278,saldanha,-33.01,17.94,55.4,82,43,3.36,ZA,1580184377
279,margate,51.38,1.39,41.0,93,75,12.75,GB,1580184370
280,vostok,46.49,135.88,27.48,74,5,1.77,RU,1580184369
281,butterworth,5.4,100.36,89.6,62,20,8.05,MY,1580184461
282,talnakh,69.49,88.4,8.6,78,75,17.9,RU,1580184355
283,kurilsk,45.23,147.88,23.76,53,0,6.85,RU,1580184392
284,great yarmouth,52.61,1.73,41.0,93,95,8.05,GB,1580184461
285,nioro,13.35,-15.75,71.55,11,0,0.81,GM,1580184461
286,lagos,6.58,3.75,71.6,94,100,2.24,NG,1580184413
287,sioux lookout,50.1,-91.92,15.8,85,90,3.36,CA,1580184365
288,ancud,-41.87,-73.82,60.8,100,90,3.36,CL,1580184357
289,sao filipe,14.9,-24.5,74.19,55,73,17.29,CV,1580184462
290,tarko-sale,64.92,77.78,11.68,94,100,14.23,RU,1580184462
291,ouallam,14.32,2.09,68.45,7,100,11.79,NE,1580184462
292,honningsvag,70.98,25.97,22.6,64,37,21.45,NO,1580184462
293,fairbanks,64.84,-147.72,-18.99,74,90,2.98,US,1580184358
294,tula,54.2,37.61,30.0,97,100,8.81,RU,1580184462
295,la ronge,55.1,-105.28,12.2,92,90,4.45,CA,1580184363
296,lata,40.16,-8.33,59.0,100,75,8.05,PT,1580184367
297,pirai do sul,-24.53,-49.95,72.0,86,52,1.01,BR,1580184419
298,itaituba,-4.28,-55.98,74.23,92,89,2.33,BR,1580184372
299,remedios,22.49,-79.55,68.0,88,20,3.36,CU,1580184462
300,freeport,40.66,-73.58,42.01,60,90,17.87,US,1580184364
301,bathsheba,13.22,-59.52,78.8,78,40,11.41,BB,1580184462
302,narsaq,60.92,-46.05,14.0,56,80,5.82,GL,1580184368
303,sao jose da coroa grande,-8.9,-35.15,80.78,80,37,10.8,BR,1580184462
304,mar del plata,-38.0,-57.56,60.01,76,0,4.7,AR,1580184356
305,jadu,31.95,12.03,49.93,81,0,2.39,LY,1580184462
306,harper,4.38,-7.72,76.64,90,16,1.52,LR,1580184350
307,cedar city,37.68,-113.06,35.6,59,1,6.93,US,1580184462
308,conde,-7.26,-34.91,80.6,83,86,4.7,BR,1580184462
309,savannah bight,16.45,-85.85,78.57,71,0,7.72,HN,1580184463
310,ostrovnoy,68.05,39.51,3.72,99,68,6.15,RU,1580184369
311,takoradi,4.88,-1.76,75.96,91,3,1.48,GH,1580184369
312,honiara,-9.43,159.95,89.6,70,40,9.17,SB,1580184171
313,husavik,66.04,-17.34,14.0,85,100,11.41,IS,1580184463
314,gidole,5.65,37.37,66.24,82,75,2.01,ET,1580184463
315,kuzino,57.02,59.44,-10.39,98,100,7.78,RU,1580184463
316,cerrito,6.84,-72.69,68.0,100,40,3.36,CO,1580184463
317,christchurch,-43.53,172.63,75.2,57,95,5.82,NZ,1580184192
318,san roque,36.21,-5.38,55.4,82,0,9.17,ES,1580184463
319,sitka,57.05,-135.33,35.6,94,90,17.22,US,1580184332
320,praia,14.92,-23.51,71.6,68,67,16.11,CV,1580184377
321,khatanga,71.97,102.5,-15.7,91,0,8.01,RU,1580184356
322,talcahuano,-36.72,-73.12,62.6,82,0,12.75,CL,1580184463
323,troitsk,54.1,61.58,-0.42,93,88,8.75,RU,1580184463
324,portland,45.52,-122.68,53.01,87,90,12.75,US,1580184211
325,praya,14.92,-23.51,71.6,68,67,16.11,CV,1580184463
326,great falls,47.5,-111.3,37.4,68,40,12.75,US,1580184164
327,wanaka,-44.7,169.15,81.0,35,100,5.99,NZ,1580184348
328,bitkine,11.98,18.21,63.25,14,92,7.4,TD,1580184463
329,nova vcelnice,49.24,15.07,37.99,95,100,1.01,CZ,1580184464
330,omboue,-1.57,9.26,75.36,95,0,0.49,GA,1580184464
331,taucha,51.38,12.48,45.0,81,75,14.99,DE,1580184464
332,yar-sale,66.83,70.83,-5.55,96,93,14.61,RU,1580184355
333,mulhouse,47.67,7.42,46.99,87,75,3.36,FR,1580184464
334,yarmouth,41.71,-70.23,41.0,60,90,4.7,US,1580184464
335,damghan,36.17,54.35,29.52,59,0,0.43,IR,1580184464
336,nome,64.5,-165.41,1.4,49,1,17.22,US,1580184258
337,ambon,-3.7,128.18,95.0,53,40,5.82,ID,1580184464
338,eureka,40.8,-124.16,54.0,81,90,6.93,US,1580184367
339,manicaragua,22.15,-79.97,71.6,88,31,3.36,CU,1580184464
340,aventura,25.96,-80.14,68.0,60,40,3.36,US,1580184464
341,boizenburg,53.38,10.72,42.8,87,75,11.41,DE,1580184464
342,nago,26.59,127.98,66.2,59,75,17.22,JP,1580184464
343,aswan,24.09,32.91,53.11,63,33,6.89,EG,1580184464
344,uruzgan,32.83,66.0,8.55,63,0,11.54,AF,1580184464
345,muncar,-8.43,114.33,83.46,75,3,5.7,ID,1580184464
346,san quintin,30.48,-115.95,58.91,79,0,6.46,MX,1580184464
347,jefferson city,38.58,-92.17,32.0,93,90,5.82,US,1580184428
348,huarmey,-10.07,-78.15,70.84,77,100,4.29,PE,1580184464
349,telemaco borba,-24.32,-50.62,64.58,97,33,1.57,BR,1580184465
350,bima,-8.47,118.72,86.76,69,24,3.69,ID,1580184465
351,mangan,27.52,88.53,40.78,61,93,1.92,IN,1580184465
352,ilinskiy,55.62,38.12,21.2,85,90,13.42,RU,1580184465
353,vardo,70.37,31.11,12.2,85,75,12.75,NO,1580184263
354,gat,31.61,34.76,50.0,87,100,3.36,IL,1580184356
355,berbera,10.44,45.01,77.16,67,4,12.06,SO,1580184465
356,kahului,20.89,-156.47,82.4,54,20,9.17,US,1580184227
357,rorvik,64.86,11.24,35.01,73,100,3.0,NO,1580184465
358,bocaiuva,-17.11,-43.81,71.6,100,100,3.29,BR,1580184425
359,tomigusuku,26.18,127.67,66.2,59,75,17.22,JP,1580184465
360,kenai,60.55,-151.26,6.01,77,90,9.17,US,1580184465
361,dorado,18.46,-66.27,78.8,83,40,2.35,PR,1580184465
362,barentu,15.11,37.59,51.12,77,0,1.28,ER,1580184465
363,olavarria,-36.89,-60.32,61.0,55,0,11.27,AR,1580184465
364,malmyzh,56.52,50.68,-10.98,96,0,6.46,RU,1580184465
365,bodinayakkanur,10.02,77.35,71.08,59,0,1.32,IN,1580184465
366,wanning,18.8,110.4,63.63,87,100,8.75,CN,1580184331
367,dicabisagan,17.08,122.42,79.95,64,2,3.71,PH,1580184351
368,katangli,51.71,143.23,16.14,91,100,4.16,RU,1580184465
369,salinopolis,-0.61,-47.36,82.08,79,100,14.36,BR,1580184465
370,teya,60.38,92.63,18.72,94,100,7.85,RU,1580184465
371,pacific grove,36.62,-121.92,54.0,87,75,6.93,US,1580184108
372,hohoe,7.15,0.47,69.78,72,36,2.3,GH,1580184466
373,belmonte,-15.86,-38.88,77.0,94,75,3.36,BR,1580184466
374,payo,-3.75,103.64,74.35,91,100,2.01,ID,1580184466
375,kununurra,-15.77,128.73,100.4,37,48,5.82,AU,1580184376
376,minatitlan,17.98,-94.52,71.38,95,4,5.97,MX,1580184466
377,tabuk,17.42,121.44,76.98,72,3,6.69,PH,1580184466
378,bougouni,11.42,-7.48,68.18,10,67,4.09,ML,1580184466
379,buraydah,26.33,43.98,33.8,74,0,4.63,SA,1580184371
380,rafraf,37.19,10.18,50.0,87,20,5.82,TN,1580184466
381,yarada,17.65,83.27,77.0,88,20,6.93,IN,1580184329
382,sao joao da barra,-21.64,-41.05,76.26,90,100,13.98,BR,1580184466
383,vao,-22.67,167.48,77.68,81,68,16.04,NC,1580184364
384,tsaratanana,-16.78,47.65,67.5,91,68,3.91,MG,1580184466
385,elliot,-31.33,27.85,48.4,71,81,5.08,ZA,1580184466
386,blagoyevo,63.37,47.92,-14.76,99,14,3.76,RU,1580184466
387,surt,31.21,16.59,53.37,86,0,4.76,LY,1580184466
388,brae,60.4,-1.35,41.0,86,65,13.87,GB,1580184466
389,garowe,8.41,48.48,68.63,56,100,11.56,SO,1580184379
390,seydisehir,37.42,31.85,34.79,93,100,3.58,TR,1580184466
391,outjo,-20.12,16.15,68.0,77,100,2.24,NA,1580184466
392,krasnaya gorka,55.2,56.67,-6.05,98,87,5.61,RU,1580184466
393,hambantota,6.12,81.12,75.2,94,20,2.24,LK,1580184368
394,yerbogachen,61.28,108.01,4.15,90,100,7.54,RU,1580184467
395,eyl,7.98,49.82,76.37,72,89,26.6,SO,1580184467
396,viradouro,-20.87,-48.3,75.2,78,0,3.67,BR,1580184348
397,mahenge,-8.68,36.72,72.86,97,68,4.83,TZ,1580184467
398,coolum beach,-26.53,153.1,86.0,81,6,1.01,AU,1580184452
399,shunyi,40.12,116.65,39.99,48,99,2.24,CN,1580184467
400,sisimiut,66.94,-53.67,-1.28,93,100,6.29,GL,1580184467
401,saint-pierre,-21.34,55.48,75.2,57,1,6.93,RE,1580184467
402,cap-aux-meules,47.38,-61.86,30.2,92,90,4.7,CA,1580184467
403,buchanan,5.88,-10.05,77.0,94,40,1.45,LR,1580184306
404,salalah,17.02,54.09,62.6,27,0,18.34,OM,1580184349
405,dunedin,-45.87,170.5,66.0,73,71,10.0,NZ,1580184375
406,guider,9.93,13.95,65.23,18,83,7.0,CM,1580184467
407,naze,28.37,129.48,66.2,63,75,11.41,JP,1580184358
408,nantucket,41.28,-70.1,39.99,74,40,10.29,US,1580184367
409,mumford,5.26,-0.76,74.39,95,15,2.19,GH,1580184467
410,merrill,45.18,-89.68,28.4,79,90,4.7,US,1580184467
411,taiyuan,37.87,112.56,35.6,64,16,2.24,CN,1580184467
412,valparaiso,-33.04,-71.63,60.8,93,20,5.82,CL,1580184467
413,bagdarin,54.43,113.6,6.4,78,0,1.12,RU,1580184467
414,sangmelima,2.93,11.98,63.97,94,0,2.8,CM,1580184467
415,biak,-0.91,122.88,82.69,77,87,3.04,ID,1580184349
416,namwala,-15.75,26.44,69.44,67,99,1.48,ZM,1580184468
417,lyuban,52.8,28.0,32.18,78,80,5.19,BY,1580184361
418,safaga,26.73,33.94,51.8,57,56,6.93,EG,1580184352
419,naron,43.52,-8.15,54.0,93,20,4.7,ES,1580184468
420,cocobeach,1.0,9.58,84.2,79,40,4.7,GA,1580184468
421,moerai,-22.43,-151.33,80.24,79,100,12.19,PF,1580184468
422,hermitage,41.23,-80.45,34.0,86,90,8.05,US,1580184468
423,goderich,43.75,-81.72,34.0,85,100,1.01,CA,1580184364
424,northam,51.03,-4.22,41.0,75,100,10.0,GB,1580184468
425,ferme-neuve,46.7,-75.45,21.72,95,93,4.9,CA,1580184468
426,ukiah,39.15,-123.21,53.01,87,90,2.35,US,1580184291
427,sorland,67.67,12.69,30.2,68,20,14.99,NO,1580184357
428,marystown,47.17,-55.15,31.37,89,19,11.21,CA,1580184468
429,sovetskiy,61.36,63.58,-6.47,94,100,8.43,RU,1580184468
430,mount isa,-20.73,139.5,86.0,62,75,14.99,AU,1580184360
431,khani,41.96,42.96,46.4,42,40,16.11,GE,1580184356
432,umm kaddadah,13.6,26.69,55.2,26,51,11.41,SD,1580184468
433,traverse city,44.76,-85.62,33.8,83,90,3.36,US,1580184457
434,calvinia,-31.47,19.78,62.29,26,92,0.92,ZA,1580184468
435,vidim,56.41,103.11,10.49,84,0,3.2,RU,1580184468
436,forestville,38.85,-76.88,43.0,52,90,5.82,US,1580184376
437,burnie,-41.07,145.92,69.01,67,77,13.0,AU,1580184468
438,bathurst,-33.42,149.58,95.0,38,100,4.0,AU,1580184469
439,zbarazh,49.66,25.78,32.68,89,7,3.69,UA,1580184469
440,joshimath,30.57,79.57,31.06,54,97,4.07,IN,1580184469
441,yankton,42.87,-97.4,26.6,86,90,3.33,US,1580184469
442,ascension,30.22,-90.9,53.6,87,1,3.36,US,1580184469
443,ntcheu,-14.82,34.64,62.4,98,100,5.17,MW,1580184469
444,arinos,-15.92,-46.11,70.68,94,100,3.0,BR,1580184469
445,puerto narino,-3.77,-70.38,78.8,100,75,4.7,CO,1580184469
446,yambio,4.57,28.4,63.23,32,39,2.57,SS,1580184469
447,conceicao da barra,-18.59,-39.73,80.46,83,100,11.63,BR,1580184469
448,kavaratti,10.57,72.64,82.4,74,20,4.7,IN,1580184363
449,lubao,14.92,120.55,86.0,58,75,4.7,PH,1580184469
450,bosaso,11.28,49.18,75.51,64,33,26.19,SO,1580184469
451,san luis,-33.3,-66.34,78.98,36,0,16.06,AR,1580184469
452,port lincoln,-34.73,135.87,73.8,49,76,8.23,AU,1580184350
453,mana,5.66,-53.78,74.23,98,100,2.28,GF,1580184469
454,ubinskoye,55.31,79.68,12.96,93,99,11.74,RU,1580184469
455,morehead,37.27,-87.18,33.01,90,90,4.7,US,1580184376
456,macenta,8.54,-9.47,62.38,20,90,1.5,GN,1580184469
457,kruisfontein,-34.0,24.73,55.47,85,45,4.59,ZA,1580184362
458,victoria,22.29,114.16,55.99,54,40,9.17,HK,1580184145
459,collierville,35.04,-89.66,44.01,87,1,3.85,US,1580184470
460,manggar,-2.88,108.27,82.35,77,88,6.64,ID,1580184379
461,mackenzie,55.3,-123.17,32.0,97,90,2.24,CA,1580184470
462,narasannapeta,18.42,84.05,75.92,73,27,1.9,IN,1580184470
463,kalabo,-14.97,22.68,65.52,94,33,4.81,ZM,1580184374
464,karratha,-20.74,116.85,84.7,76,25,10.42,AU,1580184373
465,joensuu,62.58,29.75,17.01,78,90,11.41,FI,1580184470
466,kodinsk,58.69,99.18,13.24,93,100,6.22,RU,1580184470
467,berlevag,70.86,29.09,24.08,74,76,13.65,NO,1580184375
468,blora,-6.97,111.42,84.92,73,1,3.38,ID,1580184470
469,san isidro,-12.12,-77.05,75.2,83,75,14.99,PE,1580184275
470,chokurdakh,70.63,147.92,-21.78,97,100,8.5,RU,1580184358
471,beringovskiy,63.05,179.32,7.74,87,51,10.49,RU,1580184374
472,isangel,-19.55,169.27,87.8,66,20,9.17,VU,1580184353
473,raudeberg,61.99,5.14,39.0,69,78,19.46,NO,1580184470
474,assomada,15.1,-23.68,71.6,68,67,16.11,CV,1580184470
475,tekeli,44.83,78.82,10.18,71,100,10.49,KZ,1580184470
476,yenagoa,4.92,6.26,74.37,89,33,3.13,NG,1580184470
477,jidong,45.22,131.08,24.55,61,100,2.73,CN,1580184470
478,miranda,3.25,-76.23,73.4,78,75,2.24,CO,1580184470
479,ramnagar,29.4,79.12,55.92,60,37,7.92,IN,1580184470
480,hailar,49.2,119.7,-0.22,94,3,1.52,CN,1580184203
481,oyama,36.3,139.8,48.2,93,90,12.75,JP,1580184471
482,mecca,21.43,39.83,62.2,26,0,1.25,SA,1580184310
483,nuuk,64.18,-51.72,12.0,85,90,6.93,GL,1580184411
484,cabangahan,9.08,122.95,87.8,70,20,9.17,PH,1580184471
485,muros,42.78,-9.06,57.0,93,75,6.93,ES,1580184358
486,te anau,-45.42,167.72,64.81,58,100,5.97,NZ,1580184360
487,sharjah,25.36,55.4,59.0,82,20,5.82,AE,1580184471
488,coquimbo,-29.95,-71.34,64.4,88,75,8.05,CL,1580184363
489,playas,-2.63,-80.38,76.24,83,68,6.38,EC,1580184471
490,san cristobal,7.77,-72.22,80.6,74,75,0.83,VE,1580184471
491,manaus,-3.1,-60.02,78.8,94,75,2.24,BR,1580184471
492,srednekolymsk,67.45,153.68,-23.24,92,100,6.33,RU,1580184471
493,cabra,37.47,-4.44,50.0,93,90,1.12,ES,1580184471
494,bowling green,36.99,-86.44,35.6,91,1,4.03,US,1580184364
495,college,64.86,-147.8,-18.99,74,90,3.02,US,1580184471
496,hofn,64.25,-15.21,38.52,69,0,9.15,IS,1580184357
497,zhigansk,66.77,123.37,-30.12,87,6,8.12,RU,1580184472
498,puerto del rosario,28.5,-13.86,62.6,82,40,10.29,ES,1580184472
499,blackfoot,43.19,-112.34,33.8,80,1,12.75,US,1580184472
500,menongue,-14.66,17.69,61.48,95,99,1.34,AO,1580184472
501,bonavista,48.65,-53.11,30.99,89,100,13.0,CA,1580184276
502,anadyr,64.75,177.48,3.2,84,90,2.24,RU,1580184371
503,popondetta,-8.75,148.25,82.11,84,98,3.67,PG,1580184472
504,juegang,32.32,121.19,42.01,82,69,12.48,CN,1580184472
505,sola,-13.88,167.55,82.4,83,90,2.24,VU,1580184370
506,nuevo ideal,24.89,-105.07,50.0,42,0,8.05,MX,1580184472
507,maltahohe,-24.83,16.98,66.58,20,0,8.41,NA,1580184472
508,terrace,54.52,-128.6,33.8,100,90,2.24,CA,1580184472
509,namibe,-15.2,12.15,76.21,80,100,5.73,AO,1580184372
510,kloulklubed,7.04,134.26,87.8,66,75,11.41,PW,1580184472
511,mandurah,-32.55,115.7,91.4,33,0,14.99,AU,1580184472
512,yatou,37.15,122.38,39.65,93,100,10.25,CN,1580184472
513,kabo,7.7,18.63,65.28,21,0,2.8,CF,1580184472
514,leshukonskoye,64.9,45.76,-1.77,97,99,5.35,RU,1580184472
515,qasigiannguit,68.82,-51.19,6.8,60,100,6.93,GL,1580184360
516,fukuma,33.77,130.47,55.99,87,75,18.34,JP,1580184472
517,caucasia,7.99,-75.19,73.78,95,21,2.73,CO,1580184472
518,khandyga,62.67,135.6,-10.43,95,100,1.1,RU,1580184473
519,taybad,34.74,60.78,30.69,79,0,15.43,IR,1580184473
520,kabanjahe,3.1,98.49,87.8,70,20,9.17,ID,1580184425
521,sao sepe,-30.16,-53.57,70.41,73,5,9.53,BR,1580184473
522,orizona,-17.03,-48.3,64.89,96,100,5.1,BR,1580184473
523,nouakchott,18.09,-15.98,68.0,37,0,11.41,MR,1580184210
524,mahe,11.7,75.53,77.0,94,20,4.7,IN,1580184473
525,piedra gorda,18.43,-66.89,78.01,100,13,4.65,PR,1580184473
526,vila do maio,15.13,-23.22,71.6,68,66,16.11,CV,1580184473
527,bibiani,6.46,-2.32,68.61,91,2,1.63,GH,1580184473
528,upata,8.01,-62.4,72.64,88,0,4.38,VE,1580184367
529,pauini,-7.71,-66.98,75.15,92,71,2.93,BR,1580184473
530,arona,28.1,-16.68,60.8,67,20,12.75,ES,1580184473
531,sistranda,63.73,8.83,41.0,86,40,9.17,NO,1580184473
532,mocuba,-16.84,36.99,74.23,98,100,1.79,MZ,1580184473
533,jiayuguan,39.82,98.3,28.35,31,60,0.72,CN,1580184473
534,mizan teferi,6.98,35.58,64.04,81,65,2.75,ET,1580184473
535,shiggaon,15.0,75.23,68.0,94,75,5.44,IN,1580184473
536,nivala,63.92,25.0,17.01,91,100,8.01,FI,1580184473
537,loukhi,66.08,33.04,-3.37,87,0,3.38,RU,1580184474
538,bayir,37.27,28.22,51.8,93,75,8.05,TR,1580184474
539,suffolk,40.87,-72.8,42.01,69,90,6.93,US,1580184398
540,springbok,-29.66,17.89,56.73,31,50,3.22,ZA,1580184474
541,hualmay,-11.1,-77.61,70.59,81,100,5.55,PE,1580184377
542,oktyabrskoye,43.06,44.74,26.6,92,100,6.71,RU,1580184474
543,elat,29.56,34.95,46.4,61,100,6.06,IL,1580184474
544,port huron,42.97,-82.42,35.6,86,90,5.06,US,1580184374
545,marsh harbour,26.54,-77.06,72.16,70,100,2.73,BS,1580184474
546,nova olimpia,-14.8,-57.29,76.33,86,82,2.01,BR,1580184474
547,cherlak,54.16,74.81,10.09,92,100,11.32,RU,1580184474
548,tayu,-6.54,111.05,87.42,64,42,3.15,ID,1580184474
549,gizo,-8.1,156.84,84.13,72,58,7.52,SB,1580184474
550,guane,22.2,-84.09,74.55,80,8,6.26,CU,1580184474
551,bouna,9.27,-3.0,68.77,12,36,4.03,CI,1580184474
552,pendencias,-5.26,-36.72,79.54,76,97,12.28,BR,1580184444
553,ulladulla,-35.35,150.47,93.99,65,75,14.99,AU,1580184253
554,faisalabad,31.42,73.08,51.87,91,100,6.51,PK,1580184425
555,lorengau,-2.02,147.27,84.33,78,97,12.57,PG,1580184354
556,namatanai,-3.67,152.43,83.89,77,21,14.7,PG,1580184475
557,victor harbor,-35.57,138.62,86.0,50,100,13.87,AU,1580184475
558,aitape,-3.14,142.35,83.01,75,99,9.51,PG,1580184475
559,querendaro,19.87,-100.92,62.6,39,5,8.05,MX,1580184475
560,san jeronimo,-11.95,-75.28,46.13,84,100,3.71,PE,1580184475
561,taloda,21.57,74.22,64.58,60,0,8.21,IN,1580184475
562,port-gentil,-0.72,8.78,82.67,76,3,7.07,GA,1580184364
